{
"type": "FeatureCollection",
"name": "Estaciones_filtrado",
"crs": { "type": "name", "properties": { "name": "urn:ogc:def:crs:OGC:1.3:CRS84" } },
"features": [
{ "type": "Feature", "properties": { "CODIGOESTACION": "153", "DENOMINACION": "ARROYOFRESNO", "LINEAS": "7" }, "geometry": { "type": "Point", "coordinates": [ -3.72603540068917, 40.4908982656654 ] } },
{ "type": "Feature", "properties": { "CODIGOESTACION": "183", "DENOMINACION": "RIVAS URBANIZACIONES", "LINEAS": "9" }, "geometry": { "type": "Point", "coordinates": [ -3.54727580674555, 40.3667715025775 ] } },
{ "type": "Feature", "properties": { "CODIGOESTACION": "38", "DENOMINACION": "NOVICIADO", "LINEAS": "2, 3, 10" }, "geometry": { "type": "Point", "coordinates": [ -3.70741904261363, 40.424842233578403 ] } },
{ "type": "Feature", "properties": { "CODIGOESTACION": "199", "DENOMINACION": "LAGO", "LINEAS": "10" }, "geometry": { "type": "Point", "coordinates": [ -3.73563105937362, 40.416414110991496 ] } },
{ "type": "Feature", "properties": { "CODIGOESTACION": "200", "DENOMINACION": "BATAN", "LINEAS": "10" }, "geometry": { "type": "Point", "coordinates": [ -3.75310993717595, 40.407860208402397 ] } },
{ "type": "Feature", "properties": { "CODIGOESTACION": "12", "DENOMINACION": "SOL", "LINEAS": "1, 2, 3" }, "geometry": { "type": "Point", "coordinates": [ -3.70326164857528, 40.416876060893998 ] } },
{ "type": "Feature", "properties": { "CODIGOESTACION": "35", "DENOMINACION": "SOL", "LINEAS": "1, 2, 3" }, "geometry": { "type": "Point", "coordinates": [ -3.70326135075521, 40.4168474580948 ] } },
{ "type": "Feature", "properties": { "CODIGOESTACION": "48", "DENOMINACION": "SOL", "LINEAS": "1, 2, 3" }, "geometry": { "type": "Point", "coordinates": [ -3.7032610281165, 40.416816471653704 ] } },
{ "type": "Feature", "properties": { "CODIGOESTACION": "120", "DENOMINACION": "NUEVOS MINISTERIOS", "LINEAS": "6, 8, 10" }, "geometry": { "type": "Point", "coordinates": [ -3.69240645851146, 40.446621215182503 ] } },
{ "type": "Feature", "properties": { "CODIGOESTACION": "175", "DENOMINACION": "ESTRELLA", "LINEAS": "9" }, "geometry": { "type": "Point", "coordinates": [ -3.66178527076064, 40.411472219206502 ] } },
{ "type": "Feature", "properties": { "CODIGOESTACION": "193", "DENOMINACION": "NUEVOS MINISTERIOS", "LINEAS": "6, 8, 10" }, "geometry": { "type": "Point", "coordinates": [ -3.69240609163204, 40.446585465163501 ] } },
{ "type": "Feature", "properties": { "CODIGOESTACION": "62", "DENOMINACION": "LISTA", "LINEAS": "4" }, "geometry": { "type": "Point", "coordinates": [ -3.67540982227869, 40.4291685202558 ] } },
{ "type": "Feature", "properties": { "CODIGOESTACION": "185", "DENOMINACION": "LA POVEDA", "LINEAS": "9" }, "geometry": { "type": "Point", "coordinates": [ -3.47744735058845, 40.319015730792799 ] } },
{ "type": "Feature", "properties": { "CODIGOESTACION": "101", "DENOMINACION": "EMPALME", "LINEAS": "5" }, "geometry": { "type": "Point", "coordinates": [ -3.76534787557234, 40.390572557831597 ] } },
{ "type": "Feature", "properties": { "CODIGOESTACION": "265", "DENOMINACION": "MANOTERAS", "LINEAS": "4" }, "geometry": { "type": "Point", "coordinates": [ -3.66289547589112, 40.476874226693603 ] } },
{ "type": "Feature", "properties": { "CODIGOESTACION": "269", "DENOMINACION": "SAN FERMIN-ORCASUR", "LINEAS": "3" }, "geometry": { "type": "Point", "coordinates": [ -3.6941764145037, 40.369990930550898 ] } },
{ "type": "Feature", "properties": { "CODIGOESTACION": "27", "DENOMINACION": "CONGOSTO", "LINEAS": "1" }, "geometry": { "type": "Point", "coordinates": [ -3.61884135012454, 40.372382370366701 ] } },
{ "type": "Feature", "properties": { "CODIGOESTACION": "270", "DENOMINACION": "CIUDAD DE LOS ANGELES", "LINEAS": "3" }, "geometry": { "type": "Point", "coordinates": [ -3.69362644417066, 40.359585428137002 ] } },
{ "type": "Feature", "properties": { "CODIGOESTACION": "272", "DENOMINACION": "SAN CRISTOBAL", "LINEAS": "3" }, "geometry": { "type": "Point", "coordinates": [ -3.69318029918632, 40.341541936009598 ] } },
{ "type": "Feature", "properties": { "CODIGOESTACION": "209", "DENOMINACION": "PUERTA DEL SUR", "LINEAS": "10, 12" }, "geometry": { "type": "Point", "coordinates": [ -3.81248917974568, 40.345430865500603 ] } },
{ "type": "Feature", "properties": { "CODIGOESTACION": "288", "DENOMINACION": "COSLADA CENTRAL", "LINEAS": "7" }, "geometry": { "type": "Point", "coordinates": [ -3.56119234949966, 40.423736205977697 ] } },
{ "type": "Feature", "properties": { "CODIGOESTACION": "135", "DENOMINACION": "GARCIA NOBLEJAS", "LINEAS": "7" }, "geometry": { "type": "Point", "coordinates": [ -3.63329946572732, 40.428423190545097 ] } },
{ "type": "Feature", "properties": { "CODIGOESTACION": "138", "DENOMINACION": "BARRIO DE LA CONCEPCION", "LINEAS": "7" }, "geometry": { "type": "Point", "coordinates": [ -3.65200400129475, 40.439099399993097 ] } },
{ "type": "Feature", "properties": { "CODIGOESTACION": "14", "DENOMINACION": "ANTON MARTIN", "LINEAS": "1" }, "geometry": { "type": "Point", "coordinates": [ -3.69937296334489, 40.412463565689997 ] } },
{ "type": "Feature", "properties": { "CODIGOESTACION": "142", "DENOMINACION": "GREGORIO MARAÑON", "LINEAS": "7, 10" }, "geometry": { "type": "Point", "coordinates": [ -3.69148286211901, 40.438250994428998 ] } },
{ "type": "Feature", "properties": { "CODIGOESTACION": "143", "DENOMINACION": "ALONSO CANO", "LINEAS": "7" }, "geometry": { "type": "Point", "coordinates": [ -3.69924564323726, 40.4383753761104 ] } },
{ "type": "Feature", "properties": { "CODIGOESTACION": "147", "DENOMINACION": "FRANCOS RODRIGUEZ", "LINEAS": "7" }, "geometry": { "type": "Point", "coordinates": [ -3.7123866721983, 40.456481820778301 ] } },
{ "type": "Feature", "properties": { "CODIGOESTACION": "149", "DENOMINACION": "ANTONIO MACHADO", "LINEAS": "7" }, "geometry": { "type": "Point", "coordinates": [ -3.71769485524122, 40.4702177203907 ] } },
{ "type": "Feature", "properties": { "CODIGOESTACION": "186", "DENOMINACION": "ARGANDA DEL REY", "LINEAS": "9" }, "geometry": { "type": "Point", "coordinates": [ -3.44751896078065, 40.303669277437002 ] } },
{ "type": "Feature", "properties": { "CODIGOESTACION": "150", "DENOMINACION": "PEÑAGRANDE", "LINEAS": "7" }, "geometry": { "type": "Point", "coordinates": [ -3.71582415791248, 40.475923520249701 ] } },
{ "type": "Feature", "properties": { "CODIGOESTACION": "161", "DENOMINACION": "HERRERA ORIA", "LINEAS": "9" }, "geometry": { "type": "Point", "coordinates": [ -3.70751021303079, 40.484662780153002 ] } },
{ "type": "Feature", "properties": { "CODIGOESTACION": "162", "DENOMINACION": "BARRIO DEL PILAR", "LINEAS": "9" }, "geometry": { "type": "Point", "coordinates": [ -3.70316450384176, 40.476889068805598 ] } },
{ "type": "Feature", "properties": { "CODIGOESTACION": "203", "DENOMINACION": "CUATRO VIENTOS", "LINEAS": "10" }, "geometry": { "type": "Point", "coordinates": [ -3.79151519987357, 40.377706888769701 ] } },
{ "type": "Feature", "properties": { "CODIGOESTACION": "168", "DENOMINACION": "CONCHA ESPINA", "LINEAS": "9" }, "geometry": { "type": "Point", "coordinates": [ -3.67738012287591, 40.451448432622399 ] } },
{ "type": "Feature", "properties": { "CODIGOESTACION": "163", "DENOMINACION": "VENTILLA", "LINEAS": "9" }, "geometry": { "type": "Point", "coordinates": [ -3.69588332976518, 40.469435376987299 ] } },
{ "type": "Feature", "properties": { "CODIGOESTACION": "165", "DENOMINACION": "DUQUE DE PASTRANA", "LINEAS": "9" }, "geometry": { "type": "Point", "coordinates": [ -3.6791705524779, 40.467625851508799 ] } },
{ "type": "Feature", "properties": { "CODIGOESTACION": "166", "DENOMINACION": "PIO XII", "LINEAS": "9" }, "geometry": { "type": "Point", "coordinates": [ -3.67579015001895, 40.463002760511301 ] } },
{ "type": "Feature", "properties": { "CODIGOESTACION": "52", "DENOMINACION": "ARGÜELLES", "LINEAS": "3, 4, 6" }, "geometry": { "type": "Point", "coordinates": [ -3.71596265109483, 40.430660930224597 ] } },
{ "type": "Feature", "properties": { "CODIGOESTACION": "157", "DENOMINACION": "MAR DE CRISTAL", "LINEAS": "4, 8" }, "geometry": { "type": "Point", "coordinates": [ -3.63832022322047, 40.469383787188697 ] } },
{ "type": "Feature", "properties": { "CODIGOESTACION": "54", "DENOMINACION": "ARGÜELLES", "LINEAS": "3, 4, 6" }, "geometry": { "type": "Point", "coordinates": [ -3.71595686972729, 40.430598358764001 ] } },
{ "type": "Feature", "properties": { "CODIGOESTACION": "296", "DENOMINACION": "HOSPITAL DEL HENARES", "LINEAS": "7" }, "geometry": { "type": "Point", "coordinates": [ -3.53453497209821, 40.417610018218497 ] } },
{ "type": "Feature", "properties": { "CODIGOESTACION": "126", "DENOMINACION": "ARGÜELLES", "LINEAS": "3, 4, 6" }, "geometry": { "type": "Point", "coordinates": [ -3.71595616544418, 40.430531839640203 ] } },
{ "type": "Feature", "properties": { "CODIGOESTACION": "49", "DENOMINACION": "CALLAO", "LINEAS": "3, 5" }, "geometry": { "type": "Point", "coordinates": [ -3.70566123684341, 40.420136495085103 ] } },
{ "type": "Feature", "properties": { "CODIGOESTACION": "88", "DENOMINACION": "CALLAO", "LINEAS": "3, 5" }, "geometry": { "type": "Point", "coordinates": [ -3.70566477670052, 40.420083254396502 ] } },
{ "type": "Feature", "properties": { "CODIGOESTACION": "39", "DENOMINACION": "SAN BERNARDO", "LINEAS": "2, 4" }, "geometry": { "type": "Point", "coordinates": [ -3.70556993325102, 40.430012762660802 ] } },
{ "type": "Feature", "properties": { "CODIGOESTACION": "4", "DENOMINACION": "ESTRECHO", "LINEAS": "1" }, "geometry": { "type": "Point", "coordinates": [ -3.70302295994985, 40.454288025828198 ] } },
{ "type": "Feature", "properties": { "CODIGOESTACION": "217", "DENOMINACION": "MANUELA MALASAÑA", "LINEAS": "12" }, "geometry": { "type": "Point", "coordinates": [ -3.86402119722615, 40.309030055836502 ] } },
{ "type": "Feature", "properties": { "CODIGOESTACION": "89", "DENOMINACION": "OPERA", "LINEAS": "2, 5, R" }, "geometry": { "type": "Point", "coordinates": [ -3.70934960270523, 40.418093341994101 ] } },
{ "type": "Feature", "properties": { "CODIGOESTACION": "237", "DENOMINACION": "OPERA", "LINEAS": "2, 5, R" }, "geometry": { "type": "Point", "coordinates": [ -3.70928059668931, 40.4180937644539 ] } },
{ "type": "Feature", "properties": { "CODIGOESTACION": "108", "DENOMINACION": "PLAZA ELIPTICA", "LINEAS": "6, 11" }, "geometry": { "type": "Point", "coordinates": [ -3.71837055781195, 40.384600055407603 ] } },
{ "type": "Feature", "properties": { "CODIGOESTACION": "159", "DENOMINACION": "AEROPUERTO T1-T2-T3", "LINEAS": "8" }, "geometry": { "type": "Point", "coordinates": [ -3.5695382559432, 40.468644236836298 ] } },
{ "type": "Feature", "properties": { "CODIGOESTACION": "206", "DENOMINACION": "PLAZA ELIPTICA", "LINEAS": "6, 11" }, "geometry": { "type": "Point", "coordinates": [ -3.71825209360675, 40.384600790382102 ] } },
{ "type": "Feature", "properties": { "CODIGOESTACION": "64", "DENOMINACION": "AVENIDA DE AMERICA", "LINEAS": "4, 6, 7, 9" }, "geometry": { "type": "Point", "coordinates": [ -3.67663955532626, 40.438032577381598 ] } },
{ "type": "Feature", "properties": { "CODIGOESTACION": "118", "DENOMINACION": "AVENIDA DE AMERICA", "LINEAS": "4, 6, 7, 9" }, "geometry": { "type": "Point", "coordinates": [ -3.67658343172522, 40.438035287850497 ] } },
{ "type": "Feature", "properties": { "CODIGOESTACION": "141", "DENOMINACION": "AVENIDA DE AMERICA", "LINEAS": "4, 6, 7, 9" }, "geometry": { "type": "Point", "coordinates": [ -3.67652727951879, 40.4380356155743 ] } },
{ "type": "Feature", "properties": { "CODIGOESTACION": "170", "DENOMINACION": "AVENIDA DE AMERICA", "LINEAS": "4, 6, 7, 9" }, "geometry": { "type": "Point", "coordinates": [ -3.67647115240005, 40.438038328711897 ] } },
{ "type": "Feature", "properties": { "CODIGOESTACION": "29", "DENOMINACION": "MANUEL BECERRA", "LINEAS": "2, 6" }, "geometry": { "type": "Point", "coordinates": [ -3.66925820304973, 40.427904173807399 ] } },
{ "type": "Feature", "properties": { "CODIGOESTACION": "6", "DENOMINACION": "CUATRO CAMINOS", "LINEAS": "1, 2, 6" }, "geometry": { "type": "Point", "coordinates": [ -3.70397477197826, 40.446973952782997 ] } },
{ "type": "Feature", "properties": { "CODIGOESTACION": "42", "DENOMINACION": "CUATRO CAMINOS", "LINEAS": "1, 2, 6" }, "geometry": { "type": "Point", "coordinates": [ -3.70392173504299, 40.446974274859599 ] } },
{ "type": "Feature", "properties": { "CODIGOESTACION": "121", "DENOMINACION": "CUATRO CAMINOS", "LINEAS": "1, 2, 6" }, "geometry": { "type": "Point", "coordinates": [ -3.70386869928601, 40.446974596904603 ] } },
{ "type": "Feature", "properties": { "CODIGOESTACION": "116", "DENOMINACION": "MANUEL BECERRA", "LINEAS": "2, 6" }, "geometry": { "type": "Point", "coordinates": [ -3.66920518071164, 40.427904479837501 ] } },
{ "type": "Feature", "properties": { "CODIGOESTACION": "202", "DENOMINACION": "COLONIA JARDIN", "LINEAS": "10" }, "geometry": { "type": "Point", "coordinates": [ -3.77461625619616, 40.396975426434203 ] } },
{ "type": "Feature", "properties": { "CODIGOESTACION": "264", "DENOMINACION": "HORTALEZA", "LINEAS": "4" }, "geometry": { "type": "Point", "coordinates": [ -3.65257261134101, 40.475371717959 ] } },
{ "type": "Feature", "properties": { "CODIGOESTACION": "184", "DENOMINACION": "RIVAS VACIAMADRID", "LINEAS": "9" }, "geometry": { "type": "Point", "coordinates": [ -3.52059752095372, 40.328370921892898 ] } },
{ "type": "Feature", "properties": { "CODIGOESTACION": "5", "DENOMINACION": "ALVARADO", "LINEAS": "1" }, "geometry": { "type": "Point", "coordinates": [ -3.70331420927578, 40.450331975994303 ] } },
{ "type": "Feature", "properties": { "CODIGOESTACION": "50", "DENOMINACION": "PLAZA DE ESPAÑA", "LINEAS": "2, 3, 10" }, "geometry": { "type": "Point", "coordinates": [ -3.71119703758009, 40.423416027958098 ] } },
{ "type": "Feature", "properties": { "CODIGOESTACION": "51", "DENOMINACION": "VENTURA RODRIGUEZ", "LINEAS": "3" }, "geometry": { "type": "Point", "coordinates": [ -3.71341309670545, 40.427087364431102 ] } },
{ "type": "Feature", "properties": { "CODIGOESTACION": "276", "DENOMINACION": "LAS TABLAS", "LINEAS": "10" }, "geometry": { "type": "Point", "coordinates": [ -3.66944258328346, 40.508330121063899 ] } },
{ "type": "Feature", "properties": { "CODIGOESTACION": "274", "DENOMINACION": "TRES OLIVOS", "LINEAS": "10" }, "geometry": { "type": "Point", "coordinates": [ -3.69520245046674, 40.501204627481997 ] } },
{ "type": "Feature", "properties": { "CODIGOESTACION": "280", "DENOMINACION": "MARQUES DE LA VALDAVIA", "LINEAS": "10" }, "geometry": { "type": "Point", "coordinates": [ -3.63738494117669, 40.541023562133503 ] } },
{ "type": "Feature", "properties": { "CODIGOESTACION": "282", "DENOMINACION": "BAUNATAL", "LINEAS": "10" }, "geometry": { "type": "Point", "coordinates": [ -3.63512570203918, 40.554423038645297 ] } },
{ "type": "Feature", "properties": { "CODIGOESTACION": "22", "DENOMINACION": "BUENOS AIRES", "LINEAS": "1" }, "geometry": { "type": "Point", "coordinates": [ -3.6539061229837, 40.391562877215797 ] } },
{ "type": "Feature", "properties": { "CODIGOESTACION": "19", "DENOMINACION": "PUENTE DE VALLECAS", "LINEAS": "1" }, "geometry": { "type": "Point", "coordinates": [ -3.66905899947859, 40.398192151002903 ] } },
{ "type": "Feature", "properties": { "CODIGOESTACION": "178", "DENOMINACION": "PAVONES", "LINEAS": "9" }, "geometry": { "type": "Point", "coordinates": [ -3.63512255629341, 40.400511549572698 ] } },
{ "type": "Feature", "properties": { "CODIGOESTACION": "273", "DENOMINACION": "VILLAVERDE ALTO", "LINEAS": "3" }, "geometry": { "type": "Point", "coordinates": [ -3.71199027086867, 40.341228656891502 ] } },
{ "type": "Feature", "properties": { "CODIGOESTACION": "15", "DENOMINACION": "ESTACION DEL ARTE", "LINEAS": "1" }, "geometry": { "type": "Point", "coordinates": [ -3.69248727105058, 40.408851598375499 ] } },
{ "type": "Feature", "properties": { "CODIGOESTACION": "16", "DENOMINACION": "ATOCHA", "LINEAS": "1" }, "geometry": { "type": "Point", "coordinates": [ -3.68937811076585, 40.4065868145425 ] } },
{ "type": "Feature", "properties": { "CODIGOESTACION": "36", "DENOMINACION": "OPERA", "LINEAS": "2, 5, R" }, "geometry": { "type": "Point", "coordinates": [ -3.70941860871968, 40.418092919493098 ] } },
{ "type": "Feature", "properties": { "CODIGOESTACION": "57", "DENOMINACION": "ALONSO MARTINEZ", "LINEAS": "4, 5, 10" }, "geometry": { "type": "Point", "coordinates": [ -3.69593869523326, 40.427720113338701 ] } },
{ "type": "Feature", "properties": { "CODIGOESTACION": "3", "DENOMINACION": "TETUAN", "LINEAS": "1" }, "geometry": { "type": "Point", "coordinates": [ -3.69824989397233, 40.460551882664802 ] } },
{ "type": "Feature", "properties": { "CODIGOESTACION": "293", "DENOMINACION": "LA GAVIA", "LINEAS": "1" }, "geometry": { "type": "Point", "coordinates": [ -3.61346348307526, 40.370191663197502 ] } },
{ "type": "Feature", "properties": { "CODIGOESTACION": "58", "DENOMINACION": "COLON", "LINEAS": "4" }, "geometry": { "type": "Point", "coordinates": [ -3.69100739257143, 40.425419182137396 ] } },
{ "type": "Feature", "properties": { "CODIGOESTACION": "34", "DENOMINACION": "SEVILLA", "LINEAS": "2" }, "geometry": { "type": "Point", "coordinates": [ -3.69925113804034, 40.418050748124102 ] } },
{ "type": "Feature", "properties": { "CODIGOESTACION": "30", "DENOMINACION": "GOYA", "LINEAS": "2, 4" }, "geometry": { "type": "Point", "coordinates": [ -3.67591017618596, 40.424548389670598 ] } },
{ "type": "Feature", "properties": { "CODIGOESTACION": "31", "DENOMINACION": "PRINCIPE DE VERGARA", "LINEAS": "2, 9" }, "geometry": { "type": "Point", "coordinates": [ -3.68012268104369, 40.422944861760698 ] } },
{ "type": "Feature", "properties": { "CODIGOESTACION": "32", "DENOMINACION": "RETIRO", "LINEAS": "2" }, "geometry": { "type": "Point", "coordinates": [ -3.68624471917784, 40.420306717523303 ] } },
{ "type": "Feature", "properties": { "CODIGOESTACION": "33", "DENOMINACION": "BANCO DE ESPAÑA", "LINEAS": "2" }, "geometry": { "type": "Point", "coordinates": [ -3.69496510558138, 40.419219786114802 ] } },
{ "type": "Feature", "properties": { "CODIGOESTACION": "37", "DENOMINACION": "SANTO DOMINGO", "LINEAS": "2" }, "geometry": { "type": "Point", "coordinates": [ -3.70795527665699, 40.421315408133196 ] } },
{ "type": "Feature", "properties": { "CODIGOESTACION": "133", "DENOMINACION": "SAN BLAS", "LINEAS": "7" }, "geometry": { "type": "Point", "coordinates": [ -3.61546907625776, 40.427991906767403 ] } },
{ "type": "Feature", "properties": { "CODIGOESTACION": "134", "DENOMINACION": "SIMANCAS", "LINEAS": "7" }, "geometry": { "type": "Point", "coordinates": [ -3.62572167294121, 40.427992373025198 ] } },
{ "type": "Feature", "properties": { "CODIGOESTACION": "263", "DENOMINACION": "PINAR DE CHAMARTIN", "LINEAS": "1, 4" }, "geometry": { "type": "Point", "coordinates": [ -3.66680448144827, 40.480139978151001 ] } },
{ "type": "Feature", "properties": { "CODIGOESTACION": "266", "DENOMINACION": "PINAR DE CHAMARTIN", "LINEAS": "1, 4" }, "geometry": { "type": "Point", "coordinates": [ -3.66676106753469, 40.480138484479603 ] } },
{ "type": "Feature", "properties": { "CODIGOESTACION": "286", "DENOMINACION": "ESTADIO METROPOLITANO", "LINEAS": "7" }, "geometry": { "type": "Point", "coordinates": [ -3.60015365421252, 40.433393484099902 ] } },
{ "type": "Feature", "properties": { "CODIGOESTACION": "285", "DENOMINACION": "AEROPUERTO T-4", "LINEAS": "8" }, "geometry": { "type": "Point", "coordinates": [ -3.59324559721343, 40.491766772326002 ] } },
{ "type": "Feature", "properties": { "CODIGOESTACION": "300", "DENOMINACION": "RIVAS FUTURA", "LINEAS": "9" }, "geometry": { "type": "Point", "coordinates": [ -3.52478901227188, 40.341342154053599 ] } },
{ "type": "Feature", "properties": { "CODIGOESTACION": "252", "DENOMINACION": "ALAMEDA DE OSUNA", "LINEAS": "5" }, "geometry": { "type": "Point", "coordinates": [ -3.58752092904349, 40.457788628520497 ] } },
{ "type": "Feature", "properties": { "CODIGOESTACION": "268", "DENOMINACION": "HOSPITAL 12 DE OCTUBRE", "LINEAS": "3" }, "geometry": { "type": "Point", "coordinates": [ -3.69585469244456, 40.375031361291001 ] } },
{ "type": "Feature", "properties": { "CODIGOESTACION": "267", "DENOMINACION": "ALMENDRALES", "LINEAS": "3" }, "geometry": { "type": "Point", "coordinates": [ -3.69788139765522, 40.384093527174002 ] } },
{ "type": "Feature", "properties": { "CODIGOESTACION": "123", "DENOMINACION": "VICENTE ALEIXANDRE", "LINEAS": "6" }, "geometry": { "type": "Point", "coordinates": [ -3.71942671196889, 40.446436399348499 ] } },
{ "type": "Feature", "properties": { "CODIGOESTACION": "128", "DENOMINACION": "PUERTA DEL ANGEL", "LINEAS": "6" }, "geometry": { "type": "Point", "coordinates": [ -3.72724045181543, 40.413898894396297 ] } },
{ "type": "Feature", "properties": { "CODIGOESTACION": "129", "DENOMINACION": "ALTO DE EXTREMADURA", "LINEAS": "6" }, "geometry": { "type": "Point", "coordinates": [ -3.73893618157226, 40.409926016985096 ] } },
{ "type": "Feature", "properties": { "CODIGOESTACION": "13", "DENOMINACION": "TIRSO DE MOLINA", "LINEAS": "1" }, "geometry": { "type": "Point", "coordinates": [ -3.70465526879971, 40.4123480941102 ] } },
{ "type": "Feature", "properties": { "CODIGOESTACION": "47", "DENOMINACION": "LAVAPIES", "LINEAS": "3" }, "geometry": { "type": "Point", "coordinates": [ -3.70090412320048, 40.408510942855898 ] } },
{ "type": "Feature", "properties": { "CODIGOESTACION": "226", "DENOMINACION": "GETAFE CENTRAL", "LINEAS": "12" }, "geometry": { "type": "Point", "coordinates": [ -3.734025028929, 40.309927909041697 ] } },
{ "type": "Feature", "properties": { "CODIGOESTACION": "7", "DENOMINACION": "RIOS ROSAS", "LINEAS": "1" }, "geometry": { "type": "Point", "coordinates": [ -3.70132848117729, 40.441975356355897 ] } },
{ "type": "Feature", "properties": { "CODIGOESTACION": "10", "DENOMINACION": "TRIBUNAL", "LINEAS": "1, 10" }, "geometry": { "type": "Point", "coordinates": [ -3.70109984950459, 40.426185395590203 ] } },
{ "type": "Feature", "properties": { "CODIGOESTACION": "102", "DENOMINACION": "CAMPAMENTO", "LINEAS": "5" }, "geometry": { "type": "Point", "coordinates": [ -3.76812813678741, 40.394807757402099 ] } },
{ "type": "Feature", "properties": { "CODIGOESTACION": "105", "DENOMINACION": "CARPETANA", "LINEAS": "6" }, "geometry": { "type": "Point", "coordinates": [ -3.74099367671356, 40.392701899463503 ] } },
{ "type": "Feature", "properties": { "CODIGOESTACION": "107", "DENOMINACION": "OPAÑEL", "LINEAS": "6" }, "geometry": { "type": "Point", "coordinates": [ -3.72313362116361, 40.386904404255603 ] } },
{ "type": "Feature", "properties": { "CODIGOESTACION": "109", "DENOMINACION": "USERA", "LINEAS": "6" }, "geometry": { "type": "Point", "coordinates": [ -3.70689564278932, 40.387096693269697 ] } },
{ "type": "Feature", "properties": { "CODIGOESTACION": "113", "DENOMINACION": "CONDE DE CASAL", "LINEAS": "6" }, "geometry": { "type": "Point", "coordinates": [ -3.67040806723398, 40.406967950475398 ] } },
{ "type": "Feature", "properties": { "CODIGOESTACION": "115", "DENOMINACION": "O'DONNELL", "LINEAS": "6" }, "geometry": { "type": "Point", "coordinates": [ -3.66859514629195, 40.422888424644597 ] } },
{ "type": "Feature", "properties": { "CODIGOESTACION": "160", "DENOMINACION": "BARAJAS", "LINEAS": "8" }, "geometry": { "type": "Point", "coordinates": [ -3.58252790979637, 40.475774163830899 ] } },
{ "type": "Feature", "properties": { "CODIGOESTACION": "112", "DENOMINACION": "PACIFICO", "LINEAS": "1, 6" }, "geometry": { "type": "Point", "coordinates": [ -3.67385603841189, 40.402071738556003 ] } },
{ "type": "Feature", "properties": { "CODIGOESTACION": "230", "DENOMINACION": "EL BERCIAL", "LINEAS": "12" }, "geometry": { "type": "Point", "coordinates": [ -3.72963318048934, 40.329072367482901 ] } },
{ "type": "Feature", "properties": { "CODIGOESTACION": "234", "DENOMINACION": "HOSPITAL SEVERO OCHOA", "LINEAS": "12" }, "geometry": { "type": "Point", "coordinates": [ -3.76797304730462, 40.321770270088301 ] } },
{ "type": "Feature", "properties": { "CODIGOESTACION": "59", "DENOMINACION": "SERRANO", "LINEAS": "4" }, "geometry": { "type": "Point", "coordinates": [ -3.68663043638334, 40.425432159419003 ] } },
{ "type": "Feature", "properties": { "CODIGOESTACION": "60", "DENOMINACION": "VELAZQUEZ", "LINEAS": "4" }, "geometry": { "type": "Point", "coordinates": [ -3.6829181480862, 40.425032550864799 ] } },
{ "type": "Feature", "properties": { "CODIGOESTACION": "63", "DENOMINACION": "DIEGO DE LEON", "LINEAS": "4, 5, 6" }, "geometry": { "type": "Point", "coordinates": [ -3.67495273007717, 40.434679464392701 ] } },
{ "type": "Feature", "properties": { "CODIGOESTACION": "275", "DENOMINACION": "MONTECARMELO", "LINEAS": "10" }, "geometry": { "type": "Point", "coordinates": [ -3.69575069505638, 40.505252159111002 ] } },
{ "type": "Feature", "properties": { "CODIGOESTACION": "65", "DENOMINACION": "PROSPERIDAD", "LINEAS": "4" }, "geometry": { "type": "Point", "coordinates": [ -3.67481890299206, 40.444188974144502 ] } },
{ "type": "Feature", "properties": { "CODIGOESTACION": "66", "DENOMINACION": "ALFONSO XIII", "LINEAS": "4" }, "geometry": { "type": "Point", "coordinates": [ -3.66790615299561, 40.448248388160998 ] } },
{ "type": "Feature", "properties": { "CODIGOESTACION": "67", "DENOMINACION": "AVENIDA DE LA PAZ", "LINEAS": "4" }, "geometry": { "type": "Point", "coordinates": [ -3.66118199968261, 40.4535426348993 ] } },
{ "type": "Feature", "properties": { "CODIGOESTACION": "68", "DENOMINACION": "ARTURO SORIA", "LINEAS": "4" }, "geometry": { "type": "Point", "coordinates": [ -3.65618121809782, 40.455832491871497 ] } },
{ "type": "Feature", "properties": { "CODIGOESTACION": "69", "DENOMINACION": "ESPERANZA", "LINEAS": "4" }, "geometry": { "type": "Point", "coordinates": [ -3.64581718003963, 40.459447297191801 ] } },
{ "type": "Feature", "properties": { "CODIGOESTACION": "70", "DENOMINACION": "CANILLAS", "LINEAS": "4" }, "geometry": { "type": "Point", "coordinates": [ -3.63559546398109, 40.463810536980198 ] } },
{ "type": "Feature", "properties": { "CODIGOESTACION": "71", "DENOMINACION": "MAR DE CRISTAL", "LINEAS": "4, 8" }, "geometry": { "type": "Point", "coordinates": [ -3.63832267340299, 40.469426033884801 ] } },
{ "type": "Feature", "properties": { "CODIGOESTACION": "72", "DENOMINACION": "SAN LORENZO", "LINEAS": "4" }, "geometry": { "type": "Point", "coordinates": [ -3.6395772765646, 40.474470739586899 ] } },
{ "type": "Feature", "properties": { "CODIGOESTACION": "73", "DENOMINACION": "PARQUE DE SANTA MARIA", "LINEAS": "4" }, "geometry": { "type": "Point", "coordinates": [ -3.64524200216563, 40.477114293896697 ] } },
{ "type": "Feature", "properties": { "CODIGOESTACION": "74", "DENOMINACION": "CANILLEJAS", "LINEAS": "5" }, "geometry": { "type": "Point", "coordinates": [ -3.60816032312032, 40.449420844365697 ] } },
{ "type": "Feature", "properties": { "CODIGOESTACION": "75", "DENOMINACION": "TORRE ARIAS", "LINEAS": "5" }, "geometry": { "type": "Point", "coordinates": [ -3.61699470593882, 40.443743296414603 ] } },
{ "type": "Feature", "properties": { "CODIGOESTACION": "76", "DENOMINACION": "SUANZES", "LINEAS": "5" }, "geometry": { "type": "Point", "coordinates": [ -3.62683974417714, 40.440851243077702 ] } },
{ "type": "Feature", "properties": { "CODIGOESTACION": "77", "DENOMINACION": "CIUDAD LINEAL", "LINEAS": "5" }, "geometry": { "type": "Point", "coordinates": [ -3.6381575883455, 40.438048408420102 ] } },
{ "type": "Feature", "properties": { "CODIGOESTACION": "79", "DENOMINACION": "QUINTANA", "LINEAS": "5" }, "geometry": { "type": "Point", "coordinates": [ -3.64736224209832, 40.433584941649499 ] } },
{ "type": "Feature", "properties": { "CODIGOESTACION": "80", "DENOMINACION": "EL CARMEN", "LINEAS": "5" }, "geometry": { "type": "Point", "coordinates": [ -3.65757254725966, 40.4318932920946 ] } },
{ "type": "Feature", "properties": { "CODIGOESTACION": "83", "DENOMINACION": "NUÑEZ DE BALBOA", "LINEAS": "5, 9" }, "geometry": { "type": "Point", "coordinates": [ -3.6825799144836, 40.432780608043799 ] } },
{ "type": "Feature", "properties": { "CODIGOESTACION": "84", "DENOMINACION": "RUBEN DARIO", "LINEAS": "5" }, "geometry": { "type": "Point", "coordinates": [ -3.68954159857549, 40.4331579372096 ] } },
{ "type": "Feature", "properties": { "CODIGOESTACION": "9", "DENOMINACION": "BILBAO", "LINEAS": "1, 4" }, "geometry": { "type": "Point", "coordinates": [ -3.70218206577842, 40.429056024103602 ] } },
{ "type": "Feature", "properties": { "CODIGOESTACION": "90", "DENOMINACION": "LA LATINA", "LINEAS": "5" }, "geometry": { "type": "Point", "coordinates": [ -3.70816086851901, 40.4112803286869 ] } },
{ "type": "Feature", "properties": { "CODIGOESTACION": "94", "DENOMINACION": "MARQUES DE VADILLO", "LINEAS": "5" }, "geometry": { "type": "Point", "coordinates": [ -3.71596007651405, 40.397356290324502 ] } },
{ "type": "Feature", "properties": { "CODIGOESTACION": "95", "DENOMINACION": "URGEL", "LINEAS": "5" }, "geometry": { "type": "Point", "coordinates": [ -3.72360482429366, 40.393351768456199 ] } },
{ "type": "Feature", "properties": { "CODIGOESTACION": "97", "DENOMINACION": "VISTA ALEGRE", "LINEAS": "5" }, "geometry": { "type": "Point", "coordinates": [ -3.73982455000658, 40.388847025757201 ] } },
{ "type": "Feature", "properties": { "CODIGOESTACION": "98", "DENOMINACION": "CARABANCHEL", "LINEAS": "5" }, "geometry": { "type": "Point", "coordinates": [ -3.74487052104138, 40.387827019968 ] } },
{ "type": "Feature", "properties": { "CODIGOESTACION": "345", "DENOMINACION": "PACO DE LUCIA", "LINEAS": "9" }, "geometry": { "type": "Point", "coordinates": [ -3.70912735227902, 40.499707984968197 ] } },
{ "type": "Feature", "properties": { "CODIGOESTACION": "137", "DENOMINACION": "PUEBLO NUEVO", "LINEAS": "5, 7" }, "geometry": { "type": "Point", "coordinates": [ -3.64282293725217, 40.4356585154991 ] } },
{ "type": "Feature", "properties": { "CODIGOESTACION": "78", "DENOMINACION": "PUEBLO NUEVO", "LINEAS": "5, 7" }, "geometry": { "type": "Point", "coordinates": [ -3.64282326413925, 40.435692838992303 ] } },
{ "type": "Feature", "properties": { "CODIGOESTACION": "124", "DENOMINACION": "CIUDAD UNIVERSITARIA", "LINEAS": "6" }, "geometry": { "type": "Point", "coordinates": [ -3.72678481009787, 40.443564676946202 ] } },
{ "type": "Feature", "properties": { "CODIGOESTACION": "122", "DENOMINACION": "GUZMAN EL BUENO", "LINEAS": "6, 7" }, "geometry": { "type": "Point", "coordinates": [ -3.71229403706057, 40.446366079143701 ] } },
{ "type": "Feature", "properties": { "CODIGOESTACION": "146", "DENOMINACION": "GUZMAN EL BUENO", "LINEAS": "6, 7" }, "geometry": { "type": "Point", "coordinates": [ -3.71229364452619, 40.446328896938603 ] } },
{ "type": "Feature", "properties": { "CODIGOESTACION": "176", "DENOMINACION": "VINATEROS", "LINEAS": "9" }, "geometry": { "type": "Point", "coordinates": [ -3.65273420710476, 40.410239927799601 ] } },
{ "type": "Feature", "properties": { "CODIGOESTACION": "177", "DENOMINACION": "ARTILLEROS", "LINEAS": "9" }, "geometry": { "type": "Point", "coordinates": [ -3.64181233777473, 40.405223833667499 ] } },
{ "type": "Feature", "properties": { "CODIGOESTACION": "18", "DENOMINACION": "PACIFICO", "LINEAS": "1, 6" }, "geometry": { "type": "Point", "coordinates": [ -3.67513655621334, 40.401261789048199 ] } },
{ "type": "Feature", "properties": { "CODIGOESTACION": "20", "DENOMINACION": "NUEVA NUMANCIA", "LINEAS": "1" }, "geometry": { "type": "Point", "coordinates": [ -3.66414170148567, 40.395538162157202 ] } },
{ "type": "Feature", "properties": { "CODIGOESTACION": "181", "DENOMINACION": "SAN CIPRIANO", "LINEAS": "9" }, "geometry": { "type": "Point", "coordinates": [ -3.6023940495699, 40.403811757459401 ] } },
{ "type": "Feature", "properties": { "CODIGOESTACION": "61", "DENOMINACION": "GOYA", "LINEAS": "2, 4" }, "geometry": { "type": "Point", "coordinates": [ -3.67684614290745, 40.424805404818002 ] } },
{ "type": "Feature", "properties": { "CODIGOESTACION": "172", "DENOMINACION": "PRINCIPE DE VERGARA", "LINEAS": "2, 9" }, "geometry": { "type": "Point", "coordinates": [ -3.68023986899957, 40.424175954821003 ] } },
{ "type": "Feature", "properties": { "CODIGOESTACION": "194", "DENOMINACION": "GREGORIO MARAÑON", "LINEAS": "7, 10" }, "geometry": { "type": "Point", "coordinates": [ -3.69126760284298, 40.437534073320798 ] } },
{ "type": "Feature", "properties": { "CODIGOESTACION": "91", "DENOMINACION": "PUERTA DE TOLEDO", "LINEAS": "5" }, "geometry": { "type": "Point", "coordinates": [ -3.71104645076763, 40.407035754461901 ] } },
{ "type": "Feature", "properties": { "CODIGOESTACION": "259", "DENOMINACION": "ARGANZUELA-PLANETARIO", "LINEAS": "6" }, "geometry": { "type": "Point", "coordinates": [ -3.68864034744709, 40.3931027049207 ] } },
{ "type": "Feature", "properties": { "CODIGOESTACION": "255", "DENOMINACION": "CARABANCHEL ALTO", "LINEAS": "11" }, "geometry": { "type": "Point", "coordinates": [ -3.75190634426727, 40.372002421685401 ] } },
{ "type": "Feature", "properties": { "CODIGOESTACION": "140", "DENOMINACION": "CARTAGENA", "LINEAS": "7" }, "geometry": { "type": "Point", "coordinates": [ -3.67215160132978, 40.439337495245098 ] } },
{ "type": "Feature", "properties": { "CODIGOESTACION": "139", "DENOMINACION": "PARQUE DE LAS AVENIDAS", "LINEAS": "7" }, "geometry": { "type": "Point", "coordinates": [ -3.66297058086922, 40.439447602340302 ] } },
{ "type": "Feature", "properties": { "CODIGOESTACION": "86", "DENOMINACION": "CHUECA", "LINEAS": "5" }, "geometry": { "type": "Point", "coordinates": [ -3.69761659244378, 40.422933178079802 ] } },
{ "type": "Feature", "properties": { "CODIGOESTACION": "196", "DENOMINACION": "TRIBUNAL", "LINEAS": "1, 10" }, "geometry": { "type": "Point", "coordinates": [ -3.702077748836, 40.425995196780399 ] } },
{ "type": "Feature", "properties": { "CODIGOESTACION": "197", "DENOMINACION": "PLAZA DE ESPAÑA", "LINEAS": "2, 3, 10" }, "geometry": { "type": "Point", "coordinates": [ -3.70969871159774, 40.4240868846098 ] } },
{ "type": "Feature", "properties": { "CODIGOESTACION": "145", "DENOMINACION": "ISLAS FILIPINAS", "LINEAS": "7" }, "geometry": { "type": "Point", "coordinates": [ -3.71372864479935, 40.439068206632697 ] } },
{ "type": "Feature", "properties": { "CODIGOESTACION": "169", "DENOMINACION": "CRUZ DEL RAYO", "LINEAS": "9" }, "geometry": { "type": "Point", "coordinates": [ -3.67821410967105, 40.444265881103298 ] } },
{ "type": "Feature", "properties": { "CODIGOESTACION": "17", "DENOMINACION": "MENENDEZ PELAYO", "LINEAS": "1" }, "geometry": { "type": "Point", "coordinates": [ -3.68097941707577, 40.404450522263602 ] } },
{ "type": "Feature", "properties": { "CODIGOESTACION": "173", "DENOMINACION": "IBIZA", "LINEAS": "9" }, "geometry": { "type": "Point", "coordinates": [ -3.67857510552646, 40.418391210589803 ] } },
{ "type": "Feature", "properties": { "CODIGOESTACION": "136", "DENOMINACION": "ASCAO", "LINEAS": "7" }, "geometry": { "type": "Point", "coordinates": [ -3.64105571498423, 40.430205530158098 ] } },
{ "type": "Feature", "properties": { "CODIGOESTACION": "87", "DENOMINACION": "GRAN VIA", "LINEAS": "1, 5" }, "geometry": { "type": "Point", "coordinates": [ -3.70180393013566, 40.419986617735702 ] } },
{ "type": "Feature", "properties": { "CODIGOESTACION": "289", "DENOMINACION": "LA RAMBLA", "LINEAS": "7" }, "geometry": { "type": "Point", "coordinates": [ -3.54792383333825, 40.425143484139099 ] } },
{ "type": "Feature", "properties": { "CODIGOESTACION": "287", "DENOMINACION": "BARRIO DEL PUERTO", "LINEAS": "7" }, "geometry": { "type": "Point", "coordinates": [ -3.56918847026566, 40.422496870095998 ] } },
{ "type": "Feature", "properties": { "CODIGOESTACION": "290", "DENOMINACION": "SAN FERNANDO", "LINEAS": "7" }, "geometry": { "type": "Point", "coordinates": [ -3.53541452255171, 40.424412249660598 ] } },
{ "type": "Feature", "properties": { "CODIGOESTACION": "291", "DENOMINACION": "JARAMA", "LINEAS": "7" }, "geometry": { "type": "Point", "coordinates": [ -3.52549376489887, 40.422954804337998 ] } },
{ "type": "Feature", "properties": { "CODIGOESTACION": "292", "DENOMINACION": "HENARES", "LINEAS": "7" }, "geometry": { "type": "Point", "coordinates": [ -3.52717835279042, 40.417769485241202 ] } },
{ "type": "Feature", "properties": { "CODIGOESTACION": "294", "DENOMINACION": "LAS SUERTES", "LINEAS": "1" }, "geometry": { "type": "Point", "coordinates": [ -3.59953268972882, 40.363228024765903 ] } },
{ "type": "Feature", "properties": { "CODIGOESTACION": "295", "DENOMINACION": "VALDECARROS", "LINEAS": "1" }, "geometry": { "type": "Point", "coordinates": [ -3.59316035499877, 40.360068133185202 ] } },
{ "type": "Feature", "properties": { "CODIGOESTACION": "8", "DENOMINACION": "IGLESIA", "LINEAS": "1" }, "geometry": { "type": "Point", "coordinates": [ -3.69897999234847, 40.434923478284901 ] } },
{ "type": "Feature", "properties": { "CODIGOESTACION": "25", "DENOMINACION": "SIERRA DE GUADALUPE", "LINEAS": "1" }, "geometry": { "type": "Point", "coordinates": [ -3.62471747014878, 40.382164250300598 ] } },
{ "type": "Feature", "properties": { "CODIGOESTACION": "11", "DENOMINACION": "GRAN VIA", "LINEAS": "1, 5" }, "geometry": { "type": "Point", "coordinates": [ -3.70180415406271, 40.420008279509503 ] } },
{ "type": "Feature", "properties": { "CODIGOESTACION": "262", "DENOMINACION": "BAMBU", "LINEAS": "1" }, "geometry": { "type": "Point", "coordinates": [ -3.67636744147116, 40.476815361165102 ] } },
{ "type": "Feature", "properties": { "CODIGOESTACION": "144", "DENOMINACION": "CANAL", "LINEAS": "2, 7" }, "geometry": { "type": "Point", "coordinates": [ -3.70488898865674, 40.438702507945102 ] } },
{ "type": "Feature", "properties": { "CODIGOESTACION": "277", "DENOMINACION": "RONDA DE LA COMUNICACION", "LINEAS": "10" }, "geometry": { "type": "Point", "coordinates": [ -3.66276510350324, 40.515534647177397 ] } },
{ "type": "Feature", "properties": { "CODIGOESTACION": "55", "DENOMINACION": "SAN BERNARDO", "LINEAS": "2, 4" }, "geometry": { "type": "Point", "coordinates": [ -3.70567378858878, 40.42966246161 ] } },
{ "type": "Feature", "properties": { "CODIGOESTACION": "56", "DENOMINACION": "BILBAO", "LINEAS": "1, 4" }, "geometry": { "type": "Point", "coordinates": [ -3.70113817556514, 40.428850304442001 ] } },
{ "type": "Feature", "properties": { "CODIGOESTACION": "195", "DENOMINACION": "ALONSO MARTINEZ", "LINEAS": "4, 5, 10" }, "geometry": { "type": "Point", "coordinates": [ -3.69643188600389, 40.428526028829999 ] } },
{ "type": "Feature", "properties": { "CODIGOESTACION": "85", "DENOMINACION": "ALONSO MARTINEZ", "LINEAS": "4, 5, 10" }, "geometry": { "type": "Point", "coordinates": [ -3.6950229019467, 40.428282581370503 ] } },
{ "type": "Feature", "properties": { "CODIGOESTACION": "46", "DENOMINACION": "EMBAJADORES", "LINEAS": "3, 5" }, "geometry": { "type": "Point", "coordinates": [ -3.70268049977228, 40.405127271162499 ] } },
{ "type": "Feature", "properties": { "CODIGOESTACION": "125", "DENOMINACION": "MONCLOA", "LINEAS": "3, 6" }, "geometry": { "type": "Point", "coordinates": [ -3.71945001068823, 40.4349663108718 ] } },
{ "type": "Feature", "properties": { "CODIGOESTACION": "100", "DENOMINACION": "ALUCHE", "LINEAS": "5" }, "geometry": { "type": "Point", "coordinates": [ -3.76080381070444, 40.385628619563903 ] } },
{ "type": "Feature", "properties": { "CODIGOESTACION": "92", "DENOMINACION": "ACACIAS", "LINEAS": "3, 5" }, "geometry": { "type": "Point", "coordinates": [ -3.70664108607519, 40.4038716437299 ] } },
{ "type": "Feature", "properties": { "CODIGOESTACION": "110", "DENOMINACION": "LEGAZPI", "LINEAS": "3, 6" }, "geometry": { "type": "Point", "coordinates": [ -3.69505136534669, 40.391157757940299 ] } },
{ "type": "Feature", "properties": { "CODIGOESTACION": "43", "DENOMINACION": "LEGAZPI", "LINEAS": "3, 6" }, "geometry": { "type": "Point", "coordinates": [ -3.69511368759602, 40.391154999510199 ] } },
{ "type": "Feature", "properties": { "CODIGOESTACION": "127", "DENOMINACION": "PRINCIPE PIO", "LINEAS": "6, 10, R" }, "geometry": { "type": "Point", "coordinates": [ -3.72032355914226, 40.421068844383598 ] } },
{ "type": "Feature", "properties": { "CODIGOESTACION": "198", "DENOMINACION": "PRINCIPE PIO", "LINEAS": "6, 10, R" }, "geometry": { "type": "Point", "coordinates": [ -3.7203262700195, 40.421030690465003 ] } },
{ "type": "Feature", "properties": { "CODIGOESTACION": "238", "DENOMINACION": "PRINCIPE PIO", "LINEAS": "6, 10, R" }, "geometry": { "type": "Point", "coordinates": [ -3.72032588866299, 40.420994937800003 ] } },
{ "type": "Feature", "properties": { "CODIGOESTACION": "187", "DENOMINACION": "FUENCARRAL", "LINEAS": "10" }, "geometry": { "type": "Point", "coordinates": [ -3.69283123100657, 40.495085162407698 ] } },
{ "type": "Feature", "properties": { "CODIGOESTACION": "191", "DENOMINACION": "CUZCO", "LINEAS": "10" }, "geometry": { "type": "Point", "coordinates": [ -3.6898507512138, 40.4584214192787 ] } },
{ "type": "Feature", "properties": { "CODIGOESTACION": "192", "DENOMINACION": "SANTIAGO BERNABEU", "LINEAS": "10" }, "geometry": { "type": "Point", "coordinates": [ -3.69037934673485, 40.451589179525797 ] } },
{ "type": "Feature", "properties": { "CODIGOESTACION": "2", "DENOMINACION": "VALDEACEDERAS", "LINEAS": "1" }, "geometry": { "type": "Point", "coordinates": [ -3.69506203750875, 40.464424178598698 ] } },
{ "type": "Feature", "properties": { "CODIGOESTACION": "205", "DENOMINACION": "PUERTA DEL SUR", "LINEAS": "10, 12" }, "geometry": { "type": "Point", "coordinates": [ -3.81211073504745, 40.345242874276799 ] } },
{ "type": "Feature", "properties": { "CODIGOESTACION": "204", "DENOMINACION": "JOAQUIN VILUMBRALES", "LINEAS": "10" }, "geometry": { "type": "Point", "coordinates": [ -3.80720128436728, 40.349848097733997 ] } },
{ "type": "Feature", "properties": { "CODIGOESTACION": "207", "DENOMINACION": "ABRANTES", "LINEAS": "11" }, "geometry": { "type": "Point", "coordinates": [ -3.72790024912171, 40.380833614731202 ] } },
{ "type": "Feature", "properties": { "CODIGOESTACION": "208", "DENOMINACION": "PAN BENDITO", "LINEAS": "11" }, "geometry": { "type": "Point", "coordinates": [ -3.73416885653047, 40.375868636656698 ] } },
{ "type": "Feature", "properties": { "CODIGOESTACION": "21", "DENOMINACION": "PORTAZGO", "LINEAS": "1" }, "geometry": { "type": "Point", "coordinates": [ -3.65867771418254, 40.392660560088203 ] } },
{ "type": "Feature", "properties": { "CODIGOESTACION": "210", "DENOMINACION": "PARQUE LISBOA", "LINEAS": "12" }, "geometry": { "type": "Point", "coordinates": [ -3.82119573255216, 40.349687281522201 ] } },
{ "type": "Feature", "properties": { "CODIGOESTACION": "212", "DENOMINACION": "PARQUE OESTE", "LINEAS": "12" }, "geometry": { "type": "Point", "coordinates": [ -3.84933861659997, 40.345894380413696 ] } },
{ "type": "Feature", "properties": { "CODIGOESTACION": "213", "DENOMINACION": "UNIVERSIDAD REY JUAN CARLOS", "LINEAS": "12" }, "geometry": { "type": "Point", "coordinates": [ -3.87217960642448, 40.335122976598598 ] } },
{ "type": "Feature", "properties": { "CODIGOESTACION": "215", "DENOMINACION": "PRADILLO", "LINEAS": "12" }, "geometry": { "type": "Point", "coordinates": [ -3.86488940297031, 40.321676964744697 ] } },
{ "type": "Feature", "properties": { "CODIGOESTACION": "104", "DENOMINACION": "LAGUNA", "LINEAS": "6" }, "geometry": { "type": "Point", "coordinates": [ -3.74428871805663, 40.3992296247106 ] } },
{ "type": "Feature", "properties": { "CODIGOESTACION": "216", "DENOMINACION": "HOSPITAL DE MOSTOLES", "LINEAS": "12" }, "geometry": { "type": "Point", "coordinates": [ -3.87471247771921, 40.316524281645599 ] } },
{ "type": "Feature", "properties": { "CODIGOESTACION": "224", "DENOMINACION": "CONSERVATORIO", "LINEAS": "12" }, "geometry": { "type": "Point", "coordinates": [ -3.74576104044338, 40.293243846316599 ] } },
{ "type": "Feature", "properties": { "CODIGOESTACION": "218", "DENOMINACION": "LORANCA", "LINEAS": "12" }, "geometry": { "type": "Point", "coordinates": [ -3.83768345712019, 40.296812664055302 ] } },
{ "type": "Feature", "properties": { "CODIGOESTACION": "219", "DENOMINACION": "HOSPITAL DE FUENLABRADA", "LINEAS": "12" }, "geometry": { "type": "Point", "coordinates": [ -3.81641680868562, 40.285755485877601 ] } },
{ "type": "Feature", "properties": { "CODIGOESTACION": "220", "DENOMINACION": "PARQUE EUROPA", "LINEAS": "12" }, "geometry": { "type": "Point", "coordinates": [ -3.80632299228354, 40.2851756964955 ] } },
{ "type": "Feature", "properties": { "CODIGOESTACION": "324", "DENOMINACION": "AVENIDA DE GUADALAJARA", "LINEAS": "2" }, "geometry": { "type": "Point", "coordinates": [ -3.61206460968115, 40.422393583822704 ] } },
{ "type": "Feature", "properties": { "CODIGOESTACION": "325", "DENOMINACION": "LAS ROSAS", "LINEAS": "2" }, "geometry": { "type": "Point", "coordinates": [ -3.60330559556744, 40.423748431044203 ] } },
{ "type": "Feature", "properties": { "CODIGOESTACION": "111", "DENOMINACION": "MENDEZ ALVARO", "LINEAS": "6" }, "geometry": { "type": "Point", "coordinates": [ -3.67814150708304, 40.395375599391002 ] } },
{ "type": "Feature", "properties": { "CODIGOESTACION": "96", "DENOMINACION": "OPORTO", "LINEAS": "5, 6" }, "geometry": { "type": "Point", "coordinates": [ -3.73132331241503, 40.388464763093197 ] } },
{ "type": "Feature", "properties": { "CODIGOESTACION": "106", "DENOMINACION": "OPORTO", "LINEAS": "5, 6" }, "geometry": { "type": "Point", "coordinates": [ -3.73126411287804, 40.388467519483697 ] } },
{ "type": "Feature", "properties": { "CODIGOESTACION": "45", "DENOMINACION": "PALOS DE LA FRONTERA", "LINEAS": "3" }, "geometry": { "type": "Point", "coordinates": [ -3.69423268407983, 40.403072283978297 ] } },
{ "type": "Feature", "properties": { "CODIGOESTACION": "41", "DENOMINACION": "CANAL", "LINEAS": "2, 7" }, "geometry": { "type": "Point", "coordinates": [ -3.70433457335431, 40.438412998 ] } },
{ "type": "Feature", "properties": { "CODIGOESTACION": "40", "DENOMINACION": "QUEVEDO", "LINEAS": "2" }, "geometry": { "type": "Point", "coordinates": [ -3.70433286125026, 40.433217315157599 ] } },
{ "type": "Feature", "properties": { "CODIGOESTACION": "222", "DENOMINACION": "PARQUE DE LOS ESTADOS", "LINEAS": "12" }, "geometry": { "type": "Point", "coordinates": [ -3.7869740434575, 40.2868358005326 ] } },
{ "type": "Feature", "properties": { "CODIGOESTACION": "223", "DENOMINACION": "ARROYO CULEBRO", "LINEAS": "12" }, "geometry": { "type": "Point", "coordinates": [ -3.75682335666738, 40.288741769149397 ] } },
{ "type": "Feature", "properties": { "CODIGOESTACION": "225", "DENOMINACION": "ALONSO DE MENDOZA", "LINEAS": "12" }, "geometry": { "type": "Point", "coordinates": [ -3.73663697171246, 40.300813961926501 ] } },
{ "type": "Feature", "properties": { "CODIGOESTACION": "227", "DENOMINACION": "JUAN DE LA CIERVA", "LINEAS": "12" }, "geometry": { "type": "Point", "coordinates": [ -3.72224012270444, 40.311802364856298 ] } },
{ "type": "Feature", "properties": { "CODIGOESTACION": "229", "DENOMINACION": "LOS ESPARTALES", "LINEAS": "12" }, "geometry": { "type": "Point", "coordinates": [ -3.7181978645244, 40.3242270149373 ] } },
{ "type": "Feature", "properties": { "CODIGOESTACION": "23", "DENOMINACION": "ALTO DEL ARENAL", "LINEAS": "1" }, "geometry": { "type": "Point", "coordinates": [ -3.64521654904283, 40.389771012148699 ] } },
{ "type": "Feature", "properties": { "CODIGOESTACION": "231", "DENOMINACION": "EL CARRASCAL", "LINEAS": "12" }, "geometry": { "type": "Point", "coordinates": [ -3.74018488291484, 40.3366382437775 ] } },
{ "type": "Feature", "properties": { "CODIGOESTACION": "232", "DENOMINACION": "JULIAN BESTEIRO", "LINEAS": "12" }, "geometry": { "type": "Point", "coordinates": [ -3.75265895099191, 40.334749107830604 ] } },
{ "type": "Feature", "properties": { "CODIGOESTACION": "44", "DENOMINACION": "DELICIAS", "LINEAS": "3" }, "geometry": { "type": "Point", "coordinates": [ -3.69419961603634, 40.399904778554401 ] } },
{ "type": "Feature", "properties": { "CODIGOESTACION": "233", "DENOMINACION": "CASA DEL RELOJ", "LINEAS": "12" }, "geometry": { "type": "Point", "coordinates": [ -3.75942499130863, 40.326602721384198 ] } },
{ "type": "Feature", "properties": { "CODIGOESTACION": "236", "DENOMINACION": "SAN NICASIO", "LINEAS": "12" }, "geometry": { "type": "Point", "coordinates": [ -3.77587362530074, 40.336163147896002 ] } },
{ "type": "Feature", "properties": { "CODIGOESTACION": "24", "DENOMINACION": "MIGUEL HERNANDEZ", "LINEAS": "1" }, "geometry": { "type": "Point", "coordinates": [ -3.63950990063064, 40.387315747056697 ] } },
{ "type": "Feature", "properties": { "CODIGOESTACION": "253", "DENOMINACION": "EL CAPRICHO", "LINEAS": "5" }, "geometry": { "type": "Point", "coordinates": [ -3.59401165769579, 40.453468332704901 ] } },
{ "type": "Feature", "properties": { "CODIGOESTACION": "254", "DENOMINACION": "SAN FRANCISCO", "LINEAS": "11" }, "geometry": { "type": "Point", "coordinates": [ -3.73910292919002, 40.373598841055802 ] } },
{ "type": "Feature", "properties": { "CODIGOESTACION": "257", "DENOMINACION": "AVIACION ESPAÑOLA", "LINEAS": "10" }, "geometry": { "type": "Point", "coordinates": [ -3.78392294643938, 40.383639437611201 ] } },
{ "type": "Feature", "properties": { "CODIGOESTACION": "258", "DENOMINACION": "PINAR DEL REY", "LINEAS": "8" }, "geometry": { "type": "Point", "coordinates": [ -3.64866836052012, 40.468001362073799 ] } },
{ "type": "Feature", "properties": { "CODIGOESTACION": "26", "DENOMINACION": "VILLA DE VALLECAS", "LINEAS": "1" }, "geometry": { "type": "Point", "coordinates": [ -3.62129648488235, 40.379598611419098 ] } },
{ "type": "Feature", "properties": { "CODIGOESTACION": "260", "DENOMINACION": "LA ELIPA", "LINEAS": "2" }, "geometry": { "type": "Point", "coordinates": [ -3.65051891390286, 40.426617234977201 ] } },
{ "type": "Feature", "properties": { "CODIGOESTACION": "256", "DENOMINACION": "LA PESETA", "LINEAS": "11" }, "geometry": { "type": "Point", "coordinates": [ -3.75690271058812, 40.364224011811601 ] } },
{ "type": "Feature", "properties": { "CODIGOESTACION": "130", "DENOMINACION": "LUCERO", "LINEAS": "6" }, "geometry": { "type": "Point", "coordinates": [ -3.74533695945151, 40.405099650652197 ] } },
{ "type": "Feature", "properties": { "CODIGOESTACION": "179", "DENOMINACION": "VALDEBERNARDO", "LINEAS": "9" }, "geometry": { "type": "Point", "coordinates": [ -3.62155915980853, 40.400047129618002 ] } },
{ "type": "Feature", "properties": { "CODIGOESTACION": "152", "DENOMINACION": "LACOMA", "LINEAS": "7" }, "geometry": { "type": "Point", "coordinates": [ -3.72304554155022, 40.485015026073597 ] } },
{ "type": "Feature", "properties": { "CODIGOESTACION": "151", "DENOMINACION": "AVENIDA DE LA ILUSTRACION", "LINEAS": "7" }, "geometry": { "type": "Point", "coordinates": [ -3.71839825221866, 40.480102611545703 ] } },
{ "type": "Feature", "properties": { "CODIGOESTACION": "148", "DENOMINACION": "VALDEZARZA", "LINEAS": "7" }, "geometry": { "type": "Point", "coordinates": [ -3.71597212685142, 40.464823532836 ] } },
{ "type": "Feature", "properties": { "CODIGOESTACION": "167", "DENOMINACION": "COLOMBIA", "LINEAS": "8, 9" }, "geometry": { "type": "Point", "coordinates": [ -3.67693905940289, 40.4574897504124 ] } },
{ "type": "Feature", "properties": { "CODIGOESTACION": "156", "DENOMINACION": "COLOMBIA", "LINEAS": "8, 9" }, "geometry": { "type": "Point", "coordinates": [ -3.67682428677482, 40.4563390683252 ] } },
{ "type": "Feature", "properties": { "CODIGOESTACION": "132", "DENOMINACION": "LAS MUSAS", "LINEAS": "7" }, "geometry": { "type": "Point", "coordinates": [ -3.60787951427632, 40.432988127939801 ] } },
{ "type": "Feature", "properties": { "CODIGOESTACION": "117", "DENOMINACION": "DIEGO DE LEON", "LINEAS": "4, 5, 6" }, "geometry": { "type": "Point", "coordinates": [ -3.67293856677242, 40.432947682446098 ] } },
{ "type": "Feature", "properties": { "CODIGOESTACION": "82", "DENOMINACION": "DIEGO DE LEON", "LINEAS": "4, 5, 6" }, "geometry": { "type": "Point", "coordinates": [ -3.67426171253058, 40.4323531942728 ] } },
{ "type": "Feature", "properties": { "CODIGOESTACION": "171", "DENOMINACION": "NUÑEZ DE BALBOA", "LINEAS": "5, 9" }, "geometry": { "type": "Point", "coordinates": [ -3.67936371945562, 40.430129821265702 ] } },
{ "type": "Feature", "properties": { "CODIGOESTACION": "53", "DENOMINACION": "MONCLOA", "LINEAS": "3, 6" }, "geometry": { "type": "Point", "coordinates": [ -3.7194506192407, 40.435023515195603 ] } },
{ "type": "Feature", "properties": { "CODIGOESTACION": "283", "DENOMINACION": "REYES CATOLICOS", "LINEAS": "10" }, "geometry": { "type": "Point", "coordinates": [ -3.62339941044202, 40.550374833665501 ] } },
{ "type": "Feature", "properties": { "CODIGOESTACION": "281", "DENOMINACION": "MANUEL DE FALLA", "LINEAS": "10" }, "geometry": { "type": "Point", "coordinates": [ -3.64687944950569, 40.550479980897201 ] } },
{ "type": "Feature", "properties": { "CODIGOESTACION": "279", "DENOMINACION": "LA MORALEJA", "LINEAS": "10" }, "geometry": { "type": "Point", "coordinates": [ -3.63555952271399, 40.5319556473465 ] } },
{ "type": "Feature", "properties": { "CODIGOESTACION": "278", "DENOMINACION": "LA GRANJA", "LINEAS": "10" }, "geometry": { "type": "Point", "coordinates": [ -3.65859208713804, 40.527599622362402 ] } },
{ "type": "Feature", "properties": { "CODIGOESTACION": "284", "DENOMINACION": "HOSPITAL INFANTA SOFIA", "LINEAS": "10" }, "geometry": { "type": "Point", "coordinates": [ -3.61145473384219, 40.5597694481961 ] } },
{ "type": "Feature", "properties": { "CODIGOESTACION": "119", "DENOMINACION": "REPUBLICA ARGENTINA", "LINEAS": "6" }, "geometry": { "type": "Point", "coordinates": [ -3.68406186705705, 40.443794564489998 ] } },
{ "type": "Feature", "properties": { "CODIGOESTACION": "155", "DENOMINACION": "NUEVOS MINISTERIOS", "LINEAS": "6, 8, 10" }, "geometry": { "type": "Point", "coordinates": [ -3.69240559234498, 40.446552669988399 ] } },
{ "type": "Feature", "properties": { "CODIGOESTACION": "81", "DENOMINACION": "VENTAS", "LINEAS": "2, 5" }, "geometry": { "type": "Point", "coordinates": [ -3.66360584172735, 40.4308848031949 ] } },
{ "type": "Feature", "properties": { "CODIGOESTACION": "1", "DENOMINACION": "PLAZA DE CASTILLA", "LINEAS": "1, 9, 10" }, "geometry": { "type": "Point", "coordinates": [ -3.68916958703584, 40.466896037310597 ] } },
{ "type": "Feature", "properties": { "CODIGOESTACION": "164", "DENOMINACION": "PLAZA DE CASTILLA", "LINEAS": "1, 9, 10" }, "geometry": { "type": "Point", "coordinates": [ -3.68912665320244, 40.466896292393002 ] } },
{ "type": "Feature", "properties": { "CODIGOESTACION": "190", "DENOMINACION": "PLAZA DE CASTILLA", "LINEAS": "1, 9, 10" }, "geometry": { "type": "Point", "coordinates": [ -3.68908610432808, 40.466896534141902 ] } },
{ "type": "Feature", "properties": { "CODIGOESTACION": "271", "DENOMINACION": "VILLAVERDE BAJO CRUCE", "LINEAS": "3" }, "geometry": { "type": "Point", "coordinates": [ -3.69264894181344, 40.350894763961499 ] } },
{ "type": "Feature", "properties": { "CODIGOESTACION": "182", "DENOMINACION": "PUERTA DE ARGANDA", "LINEAS": "9" }, "geometry": { "type": "Point", "coordinates": [ -3.59597530294796, 40.401315782161198 ] } },
{ "type": "Feature", "properties": { "CODIGOESTACION": "189", "DENOMINACION": "CHAMARTIN", "LINEAS": "1, 10" }, "geometry": { "type": "Point", "coordinates": [ -3.68259088054998, 40.472103124612701 ] } },
{ "type": "Feature", "properties": { "CODIGOESTACION": "188", "DENOMINACION": "BEGOÑA", "LINEAS": "10" }, "geometry": { "type": "Point", "coordinates": [ -3.685849695579, 40.480412932105402 ] } },
{ "type": "Feature", "properties": { "CODIGOESTACION": "158", "DENOMINACION": "FERIA DE MADRID", "LINEAS": "8" }, "geometry": { "type": "Point", "coordinates": [ -3.61620468224152, 40.4638931513133 ] } },
{ "type": "Feature", "properties": { "CODIGOESTACION": "261", "DENOMINACION": "CHAMARTIN", "LINEAS": "1, 10" }, "geometry": { "type": "Point", "coordinates": [ -3.6825901094031, 40.4720268529734 ] } },
{ "type": "Feature", "properties": { "CODIGOESTACION": "180", "DENOMINACION": "VICALVARO", "LINEAS": "9" }, "geometry": { "type": "Point", "coordinates": [ -3.6088588260062, 40.404215916403402 ] } },
{ "type": "Feature", "properties": { "CODIGOESTACION": "28", "DENOMINACION": "VENTAS", "LINEAS": "2, 5" }, "geometry": { "type": "Point", "coordinates": [ -3.66365886645755, 40.430884498813398 ] } },
{ "type": "Feature", "properties": { "CODIGOESTACION": "221", "DENOMINACION": "FUENLABRADA CENTRAL", "LINEAS": "12" }, "geometry": { "type": "Point", "coordinates": [ -3.79890690078202, 40.282675775140497 ] } },
{ "type": "Feature", "properties": { "CODIGOESTACION": "99", "DENOMINACION": "EUGENIA DE MONTIJO", "LINEAS": "5" }, "geometry": { "type": "Point", "coordinates": [ -3.75121118478282, 40.384385797175703 ] } },
{ "type": "Feature", "properties": { "CODIGOESTACION": "323", "DENOMINACION": "ALSACIA", "LINEAS": "2" }, "geometry": { "type": "Point", "coordinates": [ -3.62350600154867, 40.4182926946444 ] } },
{ "type": "Feature", "properties": { "CODIGOESTACION": "326", "DENOMINACION": "MIRASIERRA", "LINEAS": "9" }, "geometry": { "type": "Point", "coordinates": [ -3.71634448229921, 40.491097784867499 ] } },
{ "type": "Feature", "properties": { "CODIGOESTACION": "305", "DENOMINACION": "LA FORTUNA", "LINEAS": "11" }, "geometry": { "type": "Point", "coordinates": [ -3.777825849896, 40.357953128926503 ] } },
{ "type": "Feature", "properties": { "CODIGOESTACION": "322", "DENOMINACION": "LA ALMUDENA", "LINEAS": "2" }, "geometry": { "type": "Point", "coordinates": [ -3.63914233036257, 40.423613290680599 ] } },
{ "type": "Feature", "properties": { "CODIGOESTACION": "174", "DENOMINACION": "SAINZ DE BARANDA", "LINEAS": "6, 9" }, "geometry": { "type": "Point", "coordinates": [ -3.66951374370264, 40.415028496807103 ] } },
{ "type": "Feature", "properties": { "CODIGOESTACION": "114", "DENOMINACION": "SAINZ DE BARANDA", "LINEAS": "6, 9" }, "geometry": { "type": "Point", "coordinates": [ -3.66951413941805, 40.415068538866599 ] } },
{ "type": "Feature", "properties": { "CODIGOESTACION": "93", "DENOMINACION": "PIRAMIDES", "LINEAS": "5" }, "geometry": { "type": "Point", "coordinates": [ -3.71137712281232, 40.402598165458897 ] } },
{ "type": "Feature", "properties": { "CODIGOESTACION": "154", "DENOMINACION": "PITIS", "LINEAS": "7" }, "geometry": { "type": "Point", "coordinates": [ -3.72589123290808, 40.4951058423757 ] } },
{ "type": "Feature", "properties": { "CODIGOESTACION": "235", "DENOMINACION": "LEGANES CENTRAL", "LINEAS": "12" }, "geometry": { "type": "Point", "coordinates": [ -3.77153699668843, 40.328985230945499 ] } },
{ "type": "Feature", "properties": { "CODIGOESTACION": "211", "DENOMINACION": "ALCORCON CENTRAL", "LINEAS": "12" }, "geometry": { "type": "Point", "coordinates": [ -3.83177862063198, 40.350084340279402 ] } },
{ "type": "Feature", "properties": { "CODIGOESTACION": "214", "DENOMINACION": "MOSTOLES CENTRAL", "LINEAS": "12" }, "geometry": { "type": "Point", "coordinates": [ -3.86354217563866, 40.328500218331499 ] } },
{ "type": "Feature", "properties": { "CODIGOESTACION": "228", "DENOMINACION": "EL CASAR", "LINEAS": "12" }, "geometry": { "type": "Point", "coordinates": [ -3.70985404230006, 40.318623157885398 ] } },
{ "type": "Feature", "properties": { "CODIGOESTACION": "103", "DENOMINACION": "CASA DE CAMPO", "LINEAS": "5, 10" }, "geometry": { "type": "Point", "coordinates": [ -3.7610136676265, 40.403242270835896 ] } },
{ "type": "Feature", "properties": { "CODIGOESTACION": "201", "DENOMINACION": "CASA DE CAMPO", "LINEAS": "5, 10" }, "geometry": { "type": "Point", "coordinates": [ -3.76101328108377, 40.403207948018903 ] } }
]
}
